[
  {
    "title": "강남점",
    "lat": 37.5179681611717,
    "lng": 127.047059839521,
    "address": "서울시 강남구 학동로 426 (삼성동)",
    "tel": "02-3423-5114"
  },
  {
    "title": "강동점",
    "lat": 37.530160973856,
    "lng": 127.12379233466,
    "address": "서울시 강동구 성내로 25 (성내동)",
    "tel": "02-1577-1188"
  },
  {
    "title": "강북점",
    "lat": 37.6391856183931,
    "lng": 127.025449504014,
    "address": "서울시 강북구 도봉로89길 13 (수유동)",
    "tel": "02-901-6114"
  },
  {
    "title": "강서점",
    "lat": 37.5509655144007,
    "lng": 126.849532173376,
    "address": "서울시 강서구 화곡로302 (화곡동)",
    "tel": "02-2600-6114"
  },
  {
    "title": "관악점",
    "lat": 37.4782106746327,
    "lng": 126.951501244173,
    "address": "서울시 관악구 관악로145 (봉천동)",
    "tel": "02-879-5000"
  },
  {
    "title": "광진점",
    "lat": 37.5385316143438,
    "lng": 127.081909826352,
    "address": "서울시 광진구 자양로117 (자양동)",
    "tel": "02-450-1114"
  },
  {
    "title": "구로점",
    "lat": 37.4955054632154,
    "lng": 126.888292375229,
    "address": "서울시 구로구 가마산로 245 (구로동)",
    "tel": "02-860-2114"
  },
  {
    "title": "금천점",
    "lat": 37.4570656519531,
    "lng": 126.896036850324,
    "address": "서울시 금천구 시흥대로73길 70",
    "tel": "02-2627-2114"
  },
  {
    "title": "노원점",
    "lat": 37.6545228397157,
    "lng": 127.056268317802,
    "address": "서울시 노원구 노해로 437 (상계동)",
    "tel": "02-2116-3114"
  },
  {
    "title": "도봉점",
    "lat": 37.6687161285201,
    "lng": 127.047131400119,
    "address": "서울시 도봉구 마들로 656 (방학동)",
    "tel": "02-2091-2120"
  },
  {
    "title": "동대문점",
    "lat": 37.5743917161622,
    "lng": 127.039896580148,
    "address": "서울시 동대문구 천호대로 145 (용두동)",
    "tel": "02-2127-5000"
  },
  {
    "title": "동작점",
    "lat": 37.51252777344,
    "lng": 126.939942092863,
    "address": "서울시 동작구 장승배기로 161(노량진2동 47-2)",
    "tel": "02-820-1114"
  },
  {
    "title": "마포점",
    "lat": 37.5663128370109,
    "lng": 126.901615668932,
    "address": "서울시 마포구 월드컵로 212 (성산동)",
    "tel": "02-3153-8114"
  },
  {
    "title": "서대문점",
    "lat": 37.5791546257808,
    "lng": 126.936759175119,
    "address": "서울시 서대문구 연희로 248 (연희동)",
    "tel": "02-330-1114"
  },
  {
    "title": "서초점",
    "lat": 37.4836248649455,
    "lng": 127.032683002019,
    "address": "서울시 서초구 남부순환로2584 (서초동)",
    "tel": "02-2155-6114"
  },
  {
    "title": "성동점",
    "lat": 37.5634225092469,
    "lng": 127.036964999975,
    "address": "서울시 성동구 고산자로270",
    "tel": "02-2286-5114"
  },
  {
    "title": "성북점",
    "lat": 37.5894551333062,
    "lng": 127.016690019544,
    "address": "서울시 성북구 보문로 168 (삼선동 5가)",
    "tel": "02-2241-3114"
  },
  {
    "title": "송파점",
    "lat": 37.514477182474,
    "lng": 127.105859984389,
    "address": "서울시 송파구 올림픽로 326 (신천동)",
    "tel": "02-2147-2000"
  },
  {
    "title": "양천점",
    "lat": 37.5170753784215,
    "lng": 126.866542541936,
    "address": "서울시 양천구 목동동로 105 (신정동)",
    "tel": "02-2620-3114"
  },
  {
    "title": "영등포점",
    "lat": 37.525963157053,
    "lng": 126.896367130558,
    "address": "서울시 영등포구 당산로 123 (당산동3가)",
    "tel": "02-2670-3114"
  },
  {
    "title": "용산점",
    "lat": 37.5324522944579,
    "lng": 126.990478820837,
    "address": "서울시 용산구 녹사평대로150 (이태원동)",
    "tel": "02-2199-6114"
  },
  {
    "title": "은평점",
    "lat": 37.6024574203071,
    "lng": 126.928822870137,
    "address": "서울시 은평구 은평로195 (녹번동)",
    "tel": "02-351-6114"
  },
  {
    "title": "종로점",
    "lat": 37.5731991345462,
    "lng": 126.978813334368,
    "address": "서울시 종로구 삼봉로43 (수송동)",
    "tel": "02-2148-1114"
  },
  {
    "title": "중점",
    "lat": 37.5641201543296,
    "lng": 126.998009728978,
    "address": "서울시 중구 창경궁로 17 (예관동)",
    "tel": "02-3396-4114"
  },
  {
    "title": "중랑점",
    "lat": 37.6065635856848,
    "lng": 127.09272484193,
    "address": "서울시 중랑구 봉화산로 179 (신내동)",
    "tel": "02-2094-0114"
  }
]
